City,Cloudiness,Country,Date,Humidity,Lat,Lon,Max temp,Wind speed
Netarhat,37,IN,1563740636,85,23.45,84.31,24.1,2.56
Thompson,20,CA,1563740637,36,55.74,-97.86,24.0,5.7
Sitka,80,US,1563740637,46,37.17,-99.65,33.33,0.45
West Wendover,1,US,1563740637,18,40.74,-114.07,32.0,4.6
Coquimbo,90,CL,1563740637,87,-29.95,-71.34,12.0,2.6
Luwuk,28,ID,1563740637,87,-0.95,122.79,13.7,1.82
Krasnoarmeysk,0,RU,1563740638,82,56.12,38.15,21.11,1.0
Bluff,59,AU,1563740638,89,-23.58,149.07,14.4,2.62
Peniche,0,PT,1563740638,88,39.36,-9.38,22.22,4.6
Port Alfred,0,ZA,1563740638,65,-33.59,26.89,11.11,3.13
Lichuan,100,CN,1563740638,91,30.3,108.94,21.4,2.57
Labuhan,0,ID,1563740639,88,-2.54,115.51,20.0,0.81
Banes,20,CU,1563740639,49,20.96,-75.72,34.0,7.2
Longyearbyen,75,NO,1563740639,87,78.22,15.63,7.0,7.7
Aleksandrovsk-Sakhalinskiy,100,RU,1563740639,97,50.9,142.16,15.2,2.01
New Norfolk,75,AU,1563740541,76,-42.78,147.06,11.11,4.1
Carnarvon,0,ZA,1563740640,32,-30.97,22.13,7.9,5.86
Comodoro Rivadavia,0,AR,1563740640,45,-45.87,-67.48,9.0,3.1
Mataura,84,NZ,1563740640,97,-46.19,168.86,5.56,0.89
East London,0,ZA,1563740630,21,-33.02,27.91,9.7,2.02
Bhaderwah,37,IN,1563740641,91,32.98,75.72,15.5,0.98
Parana,75,BR,1563740641,70,-7.52,-72.89,30.0,1.0
Whitehorse,75,CA,1563740641,67,60.72,-135.06,20.0,2.1
Punta Arenas,0,CL,1563740641,80,-53.16,-70.91,2.0,8.2
Busselton,100,AU,1563740642,72,-33.64,115.35,8.89,9.64
Klyuchi,96,RU,1563740642,61,52.25,79.17,16.3,3.89
Norman Wells,90,CA,1563740642,76,65.28,-126.83,14.0,4.6
Tasiilaq,3,GL,1563740642,53,65.61,-37.64,11.0,4.6
Komsomolskiy,90,RU,1563740643,84,67.55,63.78,11.4,5.03
Avarua,99,CK,1563740643,88,-21.21,-159.78,25.0,4.1
Rikitea,48,PF,1563740643,67,-23.12,-134.97,20.1,6.13
Rosario,75,UY,1563740643,61,-34.31,-57.35,25.0,4.6
Constantine,0,DZ,1563740644,57,36.36,6.61,26.0,3.6
Nyurba,0,RU,1563740644,71,63.29,118.35,13.9,1.48
Staryy Nadym,71,RU,1563740644,81,65.61,72.68,17.4,3.02
Hithadhoo,5,MV,1563740644,80,-0.6,73.08,27.8,5.86
Aklavik,75,CA,1563740645,71,68.22,-135.01,11.0,5.1
Arraial do Cabo,40,BR,1563740645,83,-22.97,-42.02,22.0,8.2
Ancud,20,CL,1563740645,81,-41.87,-73.83,7.0,3.6
Zhigansk,0,RU,1563740645,49,66.77,123.37,12.4,6.04
Ushuaia,75,AR,1563740646,74,-54.81,-68.31,1.0,11.3
Talnakh,0,RU,1563740646,55,69.49,88.39,16.0,3.0
Mahebourg,20,MU,1563740590,94,-20.41,57.7,21.11,1.5
Hobart,75,AU,1563740587,76,-42.88,147.33,11.11,4.6
Belyy Yar,40,RU,1563740656,93,53.6,91.39,10.0,0.84
Lebu,40,ET,1563740657,77,8.96,38.73,15.0,2.1
Mayo,40,CA,1563740657,38,63.59,-135.9,24.0,3.1
Melipilla,20,CL,1563740657,76,-33.69,-71.21,13.0,3.1
Dubbo,27,AU,1563740657,57,-32.25,148.6,9.0,2.6
Muri,20,CH,1563740657,64,46.93,7.49,23.0,1.9
Salalah,90,OM,1563740658,94,17.01,54.1,26.0,2.1
Puerto Ayora,20,EC,1563740658,58,-0.74,-90.35,28.0,5.1
Albany,20,US,1563740658,43,42.65,-73.75,34.44,7.2
Barrow,100,AR,1563740658,36,-38.31,-60.23,11.9,2.97
Saint George,0,GR,1563740514,64,39.45,22.34,27.78,2.1
Seoul,90,KR,1563740659,106,37.57,126.98,25.0,1.5
Cherskiy,100,RU,1563740659,92,68.75,161.3,2.8,6.91
Hermanus,0,ZA,1563740659,69,-34.42,19.24,12.22,0.89
Westerland,90,NL,1563740659,77,52.89,4.93,19.44,2.1
Victoria,75,BN,1563740410,94,5.28,115.24,26.0,0.5
Kaitangata,33,NZ,1563740660,93,-46.28,169.85,7.22,0.45
Morant Bay,20,JM,1563740660,62,17.88,-76.41,30.0,9.3
Port Keats,13,AU,1563740660,86,-14.25,129.55,18.3,2.0
Chuy,39,UY,1563740660,77,-33.69,-53.46,19.8,5.52
Guerrero Negro,0,MX,1563740661,86,27.97,-114.04,19.4,5.21
Saint-Philippe,1,CA,1563740661,45,45.36,-73.48,30.56,6.2
Butaritari,10,KI,1563740661,69,3.07,172.79,28.9,2.68
Simpang,100,ID,1563740661,91,4.36,96.17,21.3,1.5
Provideniya,90,RU,1563740661,93,64.42,-173.23,10.0,6.0
Hilo,90,US,1563740662,74,19.71,-155.08,28.33,2.6
Jiwani,35,PK,1563740662,77,25.05,61.74,27.7,2.8
Codrington,75,AU,1563740662,93,-28.95,153.24,13.33,1.61
Khatanga,0,RU,1563740662,50,71.98,102.47,19.8,2.24
Chino Valley,1,US,1563740662,14,34.76,-112.45,39.44,4.1
Narsingi,57,IN,1563740663,72,18.04,78.43,25.56,2.24
Acari,80,BR,1563740663,50,-6.44,-36.64,27.2,7.8
Smithers,75,CA,1563740644,72,54.78,-127.17,17.0,2.6
Kapaa,75,US,1563740663,74,22.08,-159.32,29.0,6.2
Sioux Lookout,75,CA,1563740663,45,50.1,-91.92,19.0,3.6
Ayan,90,IR,1563740664,33,38.23,44.7,19.9,2.95
Ochamchira,100,GE,1563740664,91,42.71,41.47,21.5,2.29
Saskylakh,81,RU,1563740664,51,71.97,114.09,12.8,6.43
Panacan,75,PH,1563740664,100,7.15,125.66,26.0,1.0
Ust-Donetskiy,100,RU,1563740664,70,47.64,40.87,20.8,5.36
Berlevag,0,NO,1563740665,81,70.86,29.09,18.0,6.7
Dikson,52,RU,1563740665,96,73.51,80.55,3.1,6.28
Phan Thiet,100,VN,1563740665,95,10.93,108.1,23.7,2.56
Ostrovnoy,0,RU,1563740666,83,68.05,39.51,9.9,2.93
Amalapuram,98,IN,1563740676,87,16.58,82.0,27.0,2.22
Cidreira,89,BR,1563740676,76,-30.17,-50.22,18.8,5.35
Carballo,20,ES,1563740676,83,43.21,-8.69,21.67,3.6
Mayskiy,75,RU,1563740677,88,43.63,44.06,22.78,2.0
Taoudenni,58,ML,1563740677,15,22.68,-3.98,40.2,6.94
Erzin,0,TR,1563740677,69,36.95,36.2,27.0,5.1
Hirado,90,JP,1563740677,100,33.32,129.49,26.11,1.0
Thinadhoo,73,MV,1563740555,78,0.53,72.93,27.9,5.95
Port Blair,100,IN,1563740678,82,11.67,92.75,28.1,8.2
Saint-Leu,0,RE,1563740678,68,-21.15,55.28,21.0,2.6
Vaini,100,IN,1563740678,91,15.34,74.49,25.0,2.44
Bethel,90,US,1563740678,93,60.79,-161.76,13.0,3.1
Tual,76,ID,1563740678,82,-5.67,132.75,24.2,8.07
Porto Novo,0,BR,1563740679,46,-23.68,-45.44,23.0,2.1
Pangnirtung,40,CA,1563740679,81,66.15,-65.72,10.0,5.7
Simiti,42,CO,1563740679,48,7.96,-73.94,32.7,1.09
Pandan,100,PH,1563740679,73,11.72,122.09,28.3,2.63
Jiuquan,45,CN,1563740680,54,39.73,98.49,17.9,1.6
Georgetown,40,GY,1563740572,70,6.8,-58.16,31.0,4.1
Kruisfontein,0,ZA,1563740680,26,-34.0,24.73,11.6,5.21
Airai,56,TL,1563740680,60,-8.93,125.41,18.5,1.92
Ridgecrest,0,US,1563740680,14,35.62,-117.67,38.89,0.89
Chokurdakh,100,RU,1563740681,91,70.62,147.9,3.1,7.9
Vinstra,100,NO,1563740681,97,61.6,9.73,8.7,1.42
Leshukonskoye,0,RU,1563740681,93,64.9,45.76,9.7,3.15
Quatre Cocos,20,MU,1563740681,94,-20.21,57.76,21.11,1.5
Isangel,75,VU,1563740681,44,-19.55,169.27,24.0,6.38
Matay,0,EG,1563740682,53,28.42,30.79,25.7,7.19
Vestmanna,99,FO,1563740682,93,62.16,-7.17,12.0,3.6
Lasa,20,CY,1563740682,83,34.92,32.53,26.0,2.1
Saint-Pierre,0,FR,1563740683,56,48.95,4.24,24.0,2.6
Cerkezkoy,0,TR,1563740683,88,41.28,28.0,24.44,3.6
Ribeira Grande,40,PT,1563740683,88,38.52,-28.7,24.0,9.8
Jalingo,100,NG,1563740683,92,10.3,10.93,22.6,3.91
Goderich,0,CA,1563740683,91,43.74,-81.71,25.0,0.45
Brae,100,GB,1563740684,87,60.4,-1.35,15.0,9.3
Tiksi,82,RU,1563740684,79,71.64,128.87,3.2,0.98
Pevek,100,RU,1563740684,92,69.7,170.27,1.5,10.76
Atasu,70,KZ,1563740684,53,48.68,71.64,21.9,6.0
Alzey,1,DE,1563740684,49,49.75,8.12,25.0,2.6
Xai-Xai,30,MZ,1563740685,71,-25.04,33.64,15.4,0.25
Doka,100,SD,1563740685,88,13.52,35.76,22.1,4.16
Marsa Matruh,0,EG,1563740685,65,31.35,27.25,27.0,4.1
Meulaboh,100,ID,1563740685,71,4.14,96.13,27.4,3.82
Bambous Virieux,20,MU,1563740696,94,-20.34,57.76,21.11,1.5
Kinablangan,23,PH,1563740696,84,7.69,126.55,22.4,1.58
Bandarbeyla,100,SO,1563740696,56,9.49,50.81,25.7,12.26
Bredasdorp,0,ZA,1563740696,86,-34.53,20.04,4.0,2.1
Nouadhibou,0,MR,1563740604,69,20.93,-17.03,23.0,9.8
Upernavik,100,GL,1563740696,97,72.79,-56.15,6.3,2.55
Bose,0,IT,1563740697,58,45.46,8.01,29.0,2.1
Nome,90,US,1563740697,78,30.04,-94.42,33.0,1.5
Torbay,90,CA,1563740697,93,47.66,-52.73,11.67,6.7
Clyde River,75,CA,1563740697,87,70.47,-68.59,8.0,4.1
Savannah Bight,0,HN,1563740697,81,16.45,-85.85,28.5,7.74
Mende,0,FR,1563740698,57,44.52,3.5,25.0,1.0
Kavaratti,100,IN,1563740698,75,10.57,72.64,27.9,11.7
Cabedelo,75,BR,1563740698,88,-6.97,-34.84,24.0,4.6
Ponta do Sol,100,BR,1563740698,74,-20.63,-46.0,15.7,2.03
Tuktoyaktuk,90,CA,1563740699,66,69.44,-133.03,10.0,2.6
Tautira,75,PF,1563740699,65,-17.73,-149.15,27.0,6.2
Saldanha,13,PT,1563740699,43,41.42,-6.55,24.8,1.3
Cagliari,20,IT,1563740699,73,46.38,10.88,24.0,1.0
Honningsvag,0,NO,1563740699,63,70.98,25.97,19.0,5.7
Alyangula,100,AU,1563740700,93,-13.85,136.42,11.0,2.33
Esperance,90,AU,1563740700,71,-33.86,121.89,11.0,10.3
Te Anau,33,NZ,1563740700,84,-45.41,167.72,6.9,0.45
Santa Barbara,40,US,1563740476,72,34.42,-119.7,32.78,4.1
Namatanai,74,PG,1563740700,80,-3.66,152.44,26.3,3.11
Richards Bay,0,ZA,1563740701,69,-28.77,32.06,16.6,8.91
Havre-Saint-Pierre,75,CA,1563740701,87,50.23,-63.6,16.0,3.1
Kasongo-Lunda,0,CD,1563740701,24,-6.48,16.82,20.8,1.14
Athabasca,31,CA,1563740701,47,54.72,-113.29,23.5,3.86
Fortuna,20,US,1563740701,68,40.6,-124.16,31.67,4.6
Nikolskoye,100,RU,1563740702,63,59.7,30.79,17.0,1.24
Requena,0,ES,1563740702,65,39.49,-1.1,28.0,3.1
Gainesville,40,US,1563740481,52,29.65,-82.33,34.44,3.1
Champerico,40,MX,1563740702,55,16.38,-93.6,31.0,1.5
Daru,58,PG,1563740702,89,-9.07,143.21,22.1,2.45
Vasilsursk,75,RU,1563740703,98,56.13,46.01,13.7,2.32
Yar-Sale,95,RU,1563740703,77,66.83,70.83,16.2,2.96
Itarema,1,BR,1563740703,72,-2.92,-39.92,25.2,3.97
Jieshi,97,CN,1563740704,86,22.82,115.83,28.89,1.02
Qaanaaq,100,GL,1563740704,76,77.48,-69.36,4.7,1.74
Robertsport,100,LR,1563740704,89,6.75,-11.37,24.6,4.9
Cape Town,0,ZA,1563740636,58,-33.93,18.42,12.22,1.0
Touros,40,BR,1563740704,78,-5.2,-35.46,26.0,4.1
Geraldton,75,CA,1563740705,37,49.72,-86.95,20.0,5.7
Saint-Prosper,1,CA,1563740705,49,46.21,-70.48,24.44,2.24
Vitim,88,RU,1563740705,67,59.44,112.57,12.4,3.45
Sao Joao da Barra,20,BR,1563740705,73,-21.64,-41.05,23.0,7.2
Ravar,1,IR,1563740715,29,31.27,56.81,23.0,1.98
Seymchan,100,RU,1563740716,74,62.93,152.39,8.8,8.29
Banepa,75,NP,1563740716,94,27.63,85.52,22.0,1.5
Muros,20,ES,1563740716,82,42.77,-9.06,25.0,4.1
Zyryanka,84,RU,1563740716,72,65.73,150.89,5.3,9.56
Sao Filipe,73,CV,1563740716,77,14.9,-24.5,24.1,2.82
Axim,12,GH,1563740717,90,4.87,-2.24,24.5,4.57
Mar del Plata,0,AR,1563740717,47,-46.43,-67.52,3.2,1.7
Anisoc,89,GQ,1563740717,99,1.87,10.77,20.2,0.99
San Patricio,0,PY,1563740717,70,-26.98,-56.83,22.9,3.89
Castro,20,CL,1563740717,81,-42.48,-73.76,7.0,3.6
Constitucion,75,MX,1563740718,44,23.99,-104.67,25.0,2.6
Luanda,0,AO,1563740718,88,-8.83,13.24,22.0,3.6
Faanui,44,PF,1563740718,81,-16.48,-151.75,25.3,8.65
Luderitz,0,NA,1563740718,74,-26.65,15.16,13.6,1.38
Wattegama,100,LK,1563740719,97,7.35,80.68,22.2,1.96
Turukhansk,67,RU,1563740719,60,65.8,87.96,13.6,2.06
Siay,100,PH,1563740719,81,7.71,122.86,26.9,1.9
Abu Samrah,0,SY,1563740719,79,35.3,37.18,21.3,5.49
Yellowknife,40,CA,1563740719,50,62.45,-114.38,24.0,5.7
Berdigestyakh,0,RU,1563740720,66,62.1,126.7,13.8,2.22
Tiznit,8,MA,1563740720,92,29.7,-9.73,19.8,3.46
Aden,72,YE,1563740583,43,12.79,45.03,32.9,4.41
Laguna,75,BZ,1563740720,70,16.17,-88.94,30.0,4.1
Tuatapere,17,NZ,1563740720,97,-46.13,167.69,5.56,0.89
Kudahuvadhoo,100,MV,1563740721,73,2.67,72.89,28.7,5.75
Aragarcas,0,BR,1563740721,35,-15.9,-52.25,31.0,4.1
Vazhiny,100,RU,1563740721,66,60.96,34.04,12.0,0.86
Half Moon Bay,40,US,1563740722,64,37.46,-122.43,28.33,4.6
Atuona,100,PF,1563740722,73,-9.8,-139.03,26.9,3.94
Aykhal,0,RU,1563740722,39,65.95,111.51,17.0,1.0
Ahipara,17,NZ,1563740722,75,-35.17,173.16,14.8,6.74
Greeley,90,US,1563740723,83,41.55,-98.53,23.33,3.6
Odienne,60,CI,1563740723,93,9.51,-7.57,22.3,1.01
Jamestown,0,AU,1563740714,73,-33.21,138.6,8.0,5.15
Broome,0,GB,1563740723,64,52.47,1.45,20.56,3.1
College,75,US,1563740723,52,64.86,-147.8,22.0,3.6
Senneterre,75,CA,1563740438,49,48.39,-77.24,20.0,5.1
Lyuban,100,BY,1563740724,85,52.8,28.0,18.4,2.02
Killarney,0,AU,1563740724,94,-28.34,152.3,7.78,1.03
Leningradskiy,100,RU,1563740724,98,69.38,178.42,3.1,7.23
Shakawe,0,BW,1563740724,13,-18.36,21.84,12.0,2.2
Kungurtug,82,RU,1563740724,91,50.6,97.53,7.9,1.33
Amritsar,20,IN,1563740725,84,31.63,74.87,30.0,2.06
Rawson,100,AR,1563740735,53,-43.3,-65.11,6.2,3.87
Poum,20,MK,1563740735,77,41.28,20.71,18.0,1.5
Katima Mulilo,0,NA,1563740736,25,-17.5,24.28,11.0,1.0
Yumen,3,CN,1563740736,49,40.29,97.04,19.5,2.21
Mattru,100,SL,1563740736,95,7.62,-11.83,23.5,1.76
Kant,0,KG,1563740736,44,42.89,74.85,25.0,4.0
Ati,2,TD,1563740736,62,13.21,18.34,28.3,2.65
Worthington,1,US,1563740737,61,43.62,-95.6,26.11,3.6
San Cristobal,0,HN,1563740737,36,14.68,-86.92,30.5,5.38
Megion,0,RU,1563740737,93,61.04,76.11,11.0,2.0
Iqaluit,75,CA,1563740737,87,63.75,-68.52,7.78,7.7
Kodiak,20,US,1563740738,65,39.95,-94.76,28.0,5.1
Grindavik,75,IS,1563740738,77,63.84,-22.43,17.22,6.2
Olkhovatka,2,RU,1563740738,74,50.28,39.3,17.3,0.56
Barsi,16,IN,1563740738,54,29.05,76.02,32.7,2.61
Scarborough,100,GB,1563740738,68,54.28,-0.41,20.0,2.1
Vila Velha,20,BR,1563740739,65,-3.71,-38.6,30.0,6.7
Palora,90,EC,1563740739,100,-1.7,-77.97,18.0,4.6
Cabo San Lucas,40,MX,1563740562,58,22.89,-109.91,32.22,4.1
Russell,40,US,1563740525,54,38.9,-98.86,31.0,3.1
Sayat,0,TM,1563740739,29,38.78,63.88,33.0,6.2
La Ciotat,0,FR,1563740583,54,43.17,5.6,26.67,3.6
Sonoita,1,US,1563740740,26,31.68,-110.66,40.56,6.2
Pouebo,0,NC,1563740740,71,-20.4,164.57,15.7,1.33
Tessalit,0,ML,1563740740,25,20.2,1.01,36.9,2.41
Gat,20,SN,1563740740,74,14.69,-16.54,34.0,5.7
Natal,20,BR,1563740741,74,-5.81,-35.21,26.0,7.7
Traralgon,0,AU,1563740741,91,-38.19,146.54,6.67,1.96
Leh,0,IN,1563740741,33,34.16,77.58,6.5,0.32
Ponot,15,PH,1563740741,89,8.45,123.02,25.4,2.76
Nilanga,0,IN,1563740741,88,18.12,76.75,24.3,5.79
Necochea,100,AR,1563740742,87,-38.55,-58.74,11.11,1.79
Marsabit,17,KE,1563740742,42,2.34,37.99,28.2,8.7
Vieux-Habitants,75,GP,1563740742,58,16.06,-61.77,30.0,5.1
Castanos,5,MX,1563740742,34,26.78,-101.42,35.0,3.44
Harper,1,US,1563740742,36,30.3,-99.24,35.56,4.1
Bratsk,0,RU,1563740743,100,56.15,101.63,12.0,2.0
Kieta,100,PG,1563740743,83,-6.22,155.63,26.1,4.92
Aquiraz,20,BR,1563740743,65,-3.9,-38.39,30.0,6.7
Namibe,74,AO,1563740743,84,-15.19,12.15,20.1,5.85
Yulara,0,AU,1563740744,48,-25.24,130.99,4.0,3.1
Bathsheba,40,BB,1563740744,70,13.22,-59.52,29.0,7.2
Guadalupe,20,MX,1563740725,28,25.68,-100.26,36.0,2.1
Hanzhong,77,CN,1563740754,94,33.08,107.03,22.1,0.5
Arlit,36,NE,1563740755,19,18.74,7.39,38.3,0.64
Kaili,0,ID,1563740755,65,-3.46,120.21,13.6,1.42
Bara,100,NG,1563740755,92,10.41,10.6,22.6,3.91
Karasjok,0,NO,1563740755,72,69.47,25.52,19.0,11.8
Lompoc,1,US,1563740551,64,34.64,-120.46,27.0,6.7
Sarkand,0,KZ,1563740756,38,45.41,79.91,20.2,2.77
Hobyo,28,SO,1563740756,74,5.35,48.53,24.4,10.02
Vagur,100,FO,1563740756,96,61.47,-6.81,11.1,4.98
Mezen,92,RU,1563740756,86,65.85,44.24,7.4,3.67
Ayorou,100,NE,1563740756,45,14.73,0.92,30.1,9.37
Port Elizabeth,1,US,1563740757,50,39.31,-74.98,38.33,5.7
Vila Franca do Campo,40,PT,1563740757,88,37.72,-25.43,23.0,4.6
Kamloops,20,CA,1563740757,34,50.68,-120.34,28.0,4.6
Severo-Kurilsk,100,RU,1563740757,96,50.68,156.12,7.4,6.39
Key West,40,US,1563740758,56,47.93,-96.78,25.0,4.1
Kavieng,100,PG,1563740758,76,-2.57,150.8,27.5,3.5
Mackay,97,CA,1563740758,33,53.65,-115.58,24.0,5.7
Susanville,1,US,1563740758,22,40.42,-120.65,32.0,3.6
Xiaoshan,0,CN,1563740758,88,30.19,120.26,30.0,2.0
Hasaki,75,JP,1563740759,100,35.73,140.83,21.11,2.6
Kihei,40,US,1563740759,58,20.76,-156.45,30.0,9.3
Kailua,20,US,1563740759,83,21.39,-157.74,30.56,6.2
Placido de Castro,33,BR,1563740759,40,-10.34,-67.19,32.5,1.72
Kathmandu,75,NP,1563740760,94,27.71,85.32,22.0,1.5
Port Hedland,0,AU,1563740760,58,-20.31,118.58,14.0,2.6
Ngunguru,0,NZ,1563740760,95,-35.62,174.5,6.67,1.34
Hofn,100,IS,1563740760,98,64.25,-15.21,4.8,2.86
Songjianghe,100,CN,1563740760,97,42.18,127.48,18.0,2.02
Mikhaylovskoye,33,RU,1563740761,81,43.1,44.64,18.9,1.61
Hami,33,CN,1563740761,37,42.84,93.51,22.6,1.81
La Ronge,20,CA,1563740761,40,55.1,-105.3,23.0,5.1
Vinukonda,100,IN,1563740761,71,16.05,79.74,28.6,3.99
Padang,44,ID,1563740761,79,-0.92,100.36,27.2,3.35
Beringovskiy,100,RU,1563740762,77,63.05,179.32,11.9,6.59
Chulman,100,RU,1563740762,91,56.84,124.9,10.1,1.39
Entre Rios,10,BR,1563740762,85,-11.94,-38.08,19.7,2.89
Coihaique,20,CL,1563740762,56,-45.58,-72.07,5.0,2.1
Srostki,13,RU,1563740763,88,52.42,85.7,12.3,0.92
Kisangani,0,CD,1563740763,77,0.52,25.21,22.5,0.71
San Jeronimo,16,PE,1563740763,44,-13.65,-73.37,15.4,3.87
Lathi,100,IN,1563740764,84,21.72,71.39,26.7,2.57
Galveston,40,US,1563740764,70,40.58,-86.19,34.0,3.1
Assiniboia,29,CA,1563740774,47,49.63,-105.99,23.2,2.79
Yanam,56,IN,1563740774,87,16.73,82.22,27.0,2.29
Buchanan,75,LR,1563740774,94,5.88,-10.05,25.0,1.5
Barkhan,0,PK,1563740775,59,29.9,69.52,27.4,1.28
Sibolga,15,ID,1563740775,78,1.74,98.78,27.1,4.55
Amet,76,IN,1563740775,48,25.3,73.93,34.0,2.06
New Richmond,75,CA,1563740606,77,48.17,-65.87,21.0,1.5
Kirakira,82,SB,1563740775,78,-10.46,161.92,25.2,2.22
Caravelas,13,BR,1563740776,76,-17.73,-39.27,22.3,5.54
Kambia,75,SL,1563740776,74,9.13,-12.92,28.0,5.1
Sur,0,OM,1563740776,80,22.57,59.53,24.9,6.11
Sabha,0,LY,1563740776,17,27.03,14.43,28.8,6.34
Otane,0,NZ,1563740777,94,-39.89,176.62,3.33,0.73
Coswig,79,DE,1563740777,72,51.13,13.58,20.0,2.45
Millinocket,75,US,1563740777,73,45.66,-68.71,27.78,2.6
San Ignacio,97,PE,1563740777,59,-5.15,-79.0,21.9,1.38
Portland,75,US,1563740593,43,43.66,-70.25,33.33,6.2
Aksarka,100,RU,1563740778,72,66.56,67.8,16.9,3.22
Mitchell,90,US,1563740514,69,43.71,-98.03,25.0,4.1
Changji,100,CN,1563740778,89,32.07,116.17,26.3,1.83
Teguise,20,ES,1563740778,73,29.06,-13.56,23.0,8.2
Shimoda,100,JP,1563740778,95,34.7,138.93,24.44,0.89
Bubaque,100,GW,1563740779,83,11.28,-15.83,26.8,5.9
Tura,68,RU,1563740779,67,64.27,100.22,11.6,1.45
Saint Anthony,1,US,1563740779,24,43.97,-111.68,28.0,2.1
Ponta Delgada,40,PT,1563740779,88,37.73,-25.67,23.0,4.6
Cadillac,40,US,1563740780,39,44.25,-85.4,28.33,3.6
Eyl,36,SO,1563740780,52,7.98,49.82,26.0,11.21
Karasburg,0,NA,1563740780,16,-28.01,18.75,16.5,6.21
Inhambane,20,MZ,1563740780,67,-23.87,35.38,16.0,2.6
Pisco,75,PE,1563740780,30,-13.71,-76.2,22.0,4.6
Michigan City,90,US,1563740781,83,41.71,-86.9,26.0,4.6
Kumba,100,CM,1563740781,89,4.64,9.44,23.9,1.69
Banda Aceh,100,ID,1563740781,69,5.56,95.32,28.5,6.46
Vostok,69,RU,1563740781,90,46.45,135.83,17.6,2.2
Mandalgovi,100,MN,1563740781,58,45.76,106.27,19.4,5.36
Zabol,0,IR,1563740782,26,31.03,61.49,36.0,12.9
Grand-Santi,36,GF,1563740782,94,4.27,-54.38,26.0,1.53
Prabumulih,43,ID,1563740782,98,-3.5,104.19,22.3,1.11
Mastic Beach,1,US,1563740613,52,40.77,-72.85,36.67,6.2
Saint-Augustin,1,CA,1563740782,48,45.63,-73.98,30.56,7.7
Noumea,90,NC,1563740699,87,-22.28,166.46,15.0,1.0
Kargasok,95,RU,1563740783,72,59.06,80.87,13.4,0.65
Kem,22,UG,1563740783,89,2.68,33.77,18.5,0.61
Tsumeb,0,NA,1563740783,10,-19.25,17.72,14.3,3.93
Santiago del Estero,100,AR,1563740783,39,-27.8,-64.26,27.5,2.49
Obo,98,CF,1563740783,92,5.39,26.49,20.0,0.98
Dakar,20,SN,1563740792,74,14.69,-17.45,28.0,5.7
Portlethen,75,GB,1563740794,87,57.05,-2.13,15.56,5.1
Vaitape,44,PF,1563740794,81,-16.52,-151.75,25.3,8.65
Mehran,0,IR,1563740794,28,33.12,46.17,27.0,3.1
Verkhnyaya Toyma,0,RU,1563740795,81,62.24,45.0,13.2,3.39
Kitami,47,JP,1563740795,73,43.8,143.9,17.78,2.68
Atbasar,58,KZ,1563740795,76,51.81,68.36,19.1,2.56
Teeli,27,RU,1563740795,83,51.01,90.2,10.1,0.68
Blagoyevo,100,RU,1563740795,89,63.37,47.92,14.4,3.42
Clonakilty,75,IE,1563740796,93,51.62,-8.87,18.0,9.8
Dingle,100,PH,1563740796,86,11.0,122.67,24.0,1.08
Cassia,90,US,1563740796,78,28.89,-81.47,31.67,4.1
Iskateley,0,RU,1563740796,94,67.68,53.15,4.5,3.16
Sao Miguel do Araguaia,49,BR,1563740797,34,-13.28,-50.16,28.7,2.04
Ak-Dovurak,22,RU,1563740797,89,51.17,90.6,7.9,1.42
Dunedin,0,NZ,1563740797,99,-45.87,170.5,8.33,5.29
Marawi,30,PH,1563740797,91,8.0,124.29,24.44,1.79
Mamallapuram,75,IN,1563740798,88,12.63,80.17,27.0,4.1
Katete,52,UG,1563740798,91,-0.78,29.75,17.4,1.02
Chernyshevskiy,0,RU,1563740798,74,63.01,112.47,11.9,1.99
Prince Rupert,75,CA,1563740798,72,54.32,-130.32,17.0,2.1
Tarabuco,0,BO,1563740799,12,-19.18,-64.92,20.0,7.7
Manzanillo,75,MX,1563740798,74,19.05,-104.32,30.0,3.1
Kindu,5,CD,1563740799,68,-2.95,25.92,23.5,1.1
Maragogi,28,BR,1563740799,93,-9.01,-35.22,21.1,2.18
Port Macquarie,0,AU,1563740560,81,-31.43,152.91,6.0,1.5
Narasannapeta,0,IN,1563740799,90,18.42,84.04,26.5,0.56
Waipawa,0,NZ,1563740800,94,-39.94,176.59,3.33,0.73
Witu,20,KE,1563740800,3,-2.39,40.44,25.0,1.5
Kendari,22,ID,1563740800,97,-3.99,122.52,19.9,0.95
Joensuu,0,FI,1563740800,72,62.6,29.76,16.11,0.66
Jacareacanga,0,BR,1563740801,45,-6.22,-57.76,31.1,1.03
Astoria,90,US,1563740801,77,46.19,-123.83,28.89,3.1
Paamiut,100,GL,1563740801,92,61.99,-49.67,5.8,6.11
Srednekolymsk,100,RU,1563740801,77,67.46,153.71,4.9,5.89
Kiruna,99,SE,1563740802,87,67.86,20.23,16.0,3.1
Bereda,20,ES,1563740802,83,43.27,-7.54,21.0,3.6
Marovoay,0,MG,1563740802,53,-16.11,46.64,23.0,2.1
Mananjary,31,MG,1563740802,83,-19.16,46.8,11.8,1.63
Fukue,75,JP,1563740803,88,35.03,136.69,26.11,3.6
Belmonte,0,PT,1563740813,64,40.36,-7.35,31.67,1.28
Biak,28,ID,1563740813,87,-0.91,122.88,13.7,1.82
Poya,15,NC,1563740813,69,-21.35,165.16,18.5,3.9
Sangar,0,RU,1563740814,57,63.92,127.47,16.6,2.84
Piranshahr,38,IR,1563740814,27,36.7,45.14,17.8,0.7
Lodja,81,CD,1563740814,53,-3.52,23.6,25.3,0.62
Narrabri,81,AU,1563740814,44,-30.33,149.78,15.0,6.7
Ha Giang,100,VN,1563740815,97,22.83,104.99,18.7,1.32
Kolyvan,54,RU,1563740815,93,55.31,82.74,13.0,2.0
Kachug,3,RU,1563740815,93,53.96,105.89,12.1,0.53
Ilulissat,40,GL,1563740815,44,69.22,-51.1,16.0,3.6
Lorengau,84,PG,1563740815,82,-2.02,147.27,26.7,3.33
Luganville,75,VU,1563740816,73,-15.51,167.18,23.0,5.1
Lazaro Cardenas,40,MX,1563740816,20,28.39,-105.62,35.0,5.1
Jiayuguan,45,CN,1563740816,54,39.77,98.29,17.9,1.6
Grootfontein,0,NA,1563740816,46,-19.56,18.1,6.6,2.15
Kenai,1,US,1563740816,63,60.55,-151.26,21.67,3.6
Santa Cruz de Tenerife,20,ES,1563740570,93,28.47,-16.25,24.0,7.2
Lagoa,0,PT,1563740817,73,37.14,-8.45,23.0,2.6
Jutai,2,BR,1563740817,91,-1.71,-47.89,24.5,1.24
Araouane,19,ML,1563740817,28,18.9,-3.53,36.4,5.84
Nanortalik,99,GL,1563740818,91,60.14,-45.24,4.3,1.51
Nago,0,IT,1563740818,65,45.88,10.89,31.0,2.1
Andoain,90,ES,1563740818,73,43.22,-2.02,24.0,1.5
Tarbagatay,20,RU,1563740818,77,51.48,107.36,19.0,2.0
Kushima,95,JP,1563740818,98,31.5,131.29,24.44,0.73
Bima,100,ID,1563740819,98,-8.45,118.73,17.7,0.14
Murwara,12,IN,1563740819,71,23.85,80.4,28.3,3.08
Ambalavao,18,MG,1563740819,85,-21.83,46.94,8.8,2.04
Tanabe,90,JP,1563740819,90,33.73,135.39,24.8,8.64
Bennettsville,1,US,1563740820,37,34.62,-79.68,37.22,5.1
Derzhavinsk,70,KZ,1563740820,78,51.1,66.31,19.9,9.18
Nelson Bay,100,AU,1563740820,100,-32.72,152.14,14.44,2.1
Denpasar,99,ID,1563740574,94,-8.65,115.22,20.9,2.29
Bilma,74,NE,1563740820,9,18.69,12.92,35.8,2.33
Bambanglipuro,100,ID,1563740821,85,-7.95,110.28,24.0,5.02
Tonota,0,BW,1563740821,58,-21.44,27.46,14.0,4.1
Barao de Melgaco,0,BR,1563740821,25,-16.19,-55.97,31.0,5.1
Carutapera,45,BR,1563740821,80,-1.2,-46.02,25.8,3.75
Kefalos,0,GR,1563740821,54,36.75,26.96,28.0,7.7
Rosetown,18,CA,1563740822,57,51.55,-107.99,23.33,1.26
Rocha,90,UY,1563740832,68,-34.48,-54.34,22.0,7.92
Knysna,0,ZA,1563740832,61,-34.04,23.05,9.0,2.1
Sarishabari,100,BD,1563740832,80,24.75,89.83,28.7,5.04
Alofi,75,NU,1563740833,83,-19.06,-169.92,25.0,5.7
Amasia,30,AM,1563740833,49,40.96,43.79,23.0,6.7
Grevesmuhlen,20,DE,1563740833,63,53.87,11.18,19.0,2.6
Sabang,91,PH,1563740833,92,13.8,121.11,26.11,0.4
Skelleftea,12,SE,1563740833,55,64.75,20.95,19.0,2.1
Ambilobe,95,MG,1563740834,81,-13.19,49.05,23.1,2.06
Upington,0,ZA,1563740834,34,-28.46,21.24,10.0,3.6
Lusambo,0,CD,1563740834,33,-4.97,23.44,22.6,0.69
Verkhoyansk,2,RU,1563740834,58,67.55,133.39,6.3,3.78
Manakara,0,MG,1563740834,68,-22.14,48.01,15.9,4.4
Broken Hill,0,AU,1563740834,64,-31.97,141.45,2.0,2.6
Faya,0,SA,1563740835,12,18.39,42.45,28.0,2.1
Klaksvik,96,FO,1563740835,93,62.23,-6.59,12.0,3.6
Lavrentiya,84,RU,1563740835,78,65.58,-170.99,11.6,4.98
Birao,64,CF,1563740835,86,10.3,22.78,23.2,2.14
San Javier,55,BR,1563740836,62,-27.87,-55.13,23.33,0.45
Yantal,0,RU,1563740836,80,56.85,105.25,11.3,0.38
Cape Canaveral,20,US,1563740836,79,28.41,-80.6,31.11,4.1
Narsaq,100,GL,1563740836,71,60.91,-46.05,13.0,1.5
Takayama,100,JP,1563740836,91,36.14,137.25,25.0,1.37
Kharitonovo,100,RU,1563740837,98,61.4,47.5,14.1,2.62
Linxia,55,CN,1563740837,83,35.6,103.21,9.9,1.17
Dina,10,PK,1563740837,50,33.03,73.6,32.6,2.13
Graaff-Reinet,0,ZA,1563740837,15,-32.25,24.53,10.8,5.35
Naryan-Mar,0,RU,1563740837,94,67.67,53.09,4.5,3.16
Miura,90,JP,1563740838,100,35.17,139.64,24.44,2.63
Tilichiki,0,RU,1563740838,66,60.47,166.1,11.5,7.84
Steubenville,90,US,1563740665,78,40.37,-80.63,32.22,5.1
Hilton Head Island,20,US,1563740838,62,32.16,-80.75,35.0,5.7
Nemuro,100,JP,1563740838,91,43.32,145.57,13.6,4.51
Sumenep,42,ID,1563740839,92,-7.02,113.87,21.7,3.09
Bastia,40,IT,1563740839,73,44.6,8.98,25.0,1.5
Soimi,91,RO,1563740839,69,46.68,22.12,23.0,2.6
Najran,0,SA,1563740839,13,17.54,44.22,32.0,3.1
Souillac,0,FR,1563740840,53,45.6,-0.6,26.0,4.1
Maniitsoq,96,GL,1563740840,89,65.42,-52.9,8.1,3.83
Novoselitskoye,90,RU,1563740840,83,44.75,43.44,25.56,4.0
Beliator,100,IN,1563740840,74,23.33,87.22,28.7,5.18
Port Lincoln,93,AU,1563740840,75,-34.72,135.86,15.6,14.69
Queanbeyan,0,AU,1563740841,92,-35.35,149.23,3.33,0.64
Valdivia,75,CL,1563740841,87,-39.81,-73.25,9.0,2.1
Peleduy,58,RU,1563740841,58,59.63,112.75,14.3,5.79
Banff,0,CA,1563740841,32,51.18,-115.57,16.6,2.92
Cayenne,91,GF,1563740841,74,4.94,-52.33,28.0,3.6
Laureles,40,MX,1563740852,35,29.18,-110.87,38.89,5.1
Kloulklubed,75,PW,1563740852,88,7.04,134.26,26.0,2.6
Sarahan,9,IN,1563740852,90,31.51,77.79,14.6,0.84
Henties Bay,7,NA,1563740852,95,-22.12,14.28,12.22,1.79
Ust-Kuyga,100,RU,1563740852,81,70.0,135.55,3.9,3.16
Illintsi,9,UA,1563740853,80,49.11,29.2,18.4,2.06
Coshocton,75,US,1563740691,59,40.27,-81.86,33.0,2.6
Kon Tum,100,VN,1563740853,99,14.36,108.0,20.8,0.18
Le Port,71,FR,1563740853,79,42.87,1.37,25.0,2.68
Jimma,100,ET,1563740854,98,7.67,36.84,13.6,0.42
Shelburne,20,CA,1563740854,42,44.08,-80.2,30.0,5.7
Manokwari,95,ID,1563740796,83,-0.87,134.08,22.9,2.61
San Policarpo,90,PH,1563740854,90,12.18,125.51,25.0,2.41
Hambantota,100,LK,1563740855,79,6.12,81.12,27.5,9.25
Lafiagi,0,NG,1563740855,86,8.85,5.42,24.8,2.3
Rabo de Peixe,40,PT,1563740855,88,37.8,-25.58,23.0,4.6
Biskupiec,0,PL,1563740855,73,53.87,20.96,21.0,4.1
Boden,0,SE,1563740856,72,65.83,21.69,18.0,2.6
Gobabis,0,NA,1563740856,16,-22.45,18.97,11.4,5.89
Kadnikov,54,RU,1563740856,96,59.5,40.34,9.8,2.12
Mecca,82,SA,1563740740,33,21.43,39.83,31.1,3.05
Tezu,100,IN,1563740856,85,27.93,96.16,23.2,0.57
Shingu,100,JP,1563740857,98,33.72,135.99,20.8,2.17
San Rafael,15,AR,1563740857,38,-34.61,-68.33,10.4,5.73
Katsuura,75,JP,1563740857,94,33.93,134.5,25.0,3.1
Itoman,75,JP,1563740857,83,26.12,127.67,28.0,1.5
Boyolangu,5,ID,1563740858,95,-8.09,111.9,19.3,1.67
Vardo,75,US,1563740858,56,39.62,-77.74,37.22,4.1
Ornskoldsvik,17,SE,1563740857,72,63.29,18.72,17.0,1.5
Taksimo,100,RU,1563740858,94,56.36,114.84,12.3,0.16
Haines Junction,100,CA,1563740859,92,60.75,-137.51,10.4,1.6
El Tocuyo,20,VE,1563740859,48,9.79,-69.8,30.0,4.6
Los Llanos de Aridane,20,ES,1563740859,73,28.66,-17.92,23.0,6.7
General Roca,40,AR,1563740859,26,-39.03,-67.58,14.0,7.2
Port-Gentil,40,GA,1563740604,94,-0.72,8.78,24.0,3.6
Nsanje,0,MZ,1563740860,88,-16.92,35.26,15.8,3.27
Larap,100,PH,1563740860,77,14.3,122.65,28.2,2.18
Tonantins,65,BR,1563740860,94,-2.86,-67.77,26.0,1.78
Bayangol,100,MN,1563740860,88,48.91,106.09,16.3,2.61
Sarankhola,100,BD,1563740860,85,22.31,89.79,27.7,3.05
Jiazi,0,CN,1563740861,94,19.61,110.49,26.0,2.0
Lazdijai,100,LT,1563740861,96,54.23,23.51,16.6,3.89
Barranca,9,PE,1563740871,86,-10.75,-77.76,17.0,5.15
Vestmannaeyjar,100,IS,1563740871,91,63.44,-20.27,12.0,6.06
Altamont,40,CA,1563740872,46,49.4,-98.5,22.22,5.1
North Bend,1,US,1563740872,64,43.41,-124.22,28.33,7.2
Makakilo City,75,US,1563740872,61,21.35,-158.09,30.56,3.6
Tynda,100,RU,1563740872,98,55.15,124.74,11.4,1.83
Cordoba,67,AR,1563740873,4,-27.78,-67.24,24.0,13.13
Warmbad,0,DE,1563740873,100,50.67,13.08,20.0,1.0
Husavik,49,CA,1563740873,36,50.56,-96.99,22.78,1.71
Kopavogur,75,IS,1563740873,72,64.11,-21.91,17.22,2.6
Arica,0,CL,1563740874,63,-18.48,-70.32,19.0,5.1
Rio Claro,0,BR,1563740874,46,-22.41,-47.56,22.0,3.6
Guangyuan,100,CN,1563740874,97,32.43,105.86,21.6,1.25
Naze,100,NG,1563740875,94,5.43,7.07,23.3,2.31
Plastun,100,RU,1563740875,97,44.76,136.29,15.3,2.27
Ballina,90,IE,1563740875,100,54.11,-9.15,18.89,8.7
Shubarshi,0,KZ,1563740875,42,48.59,57.19,23.0,3.26
Itacarambi,71,BR,1563740875,52,-15.1,-44.09,21.4,2.58
Almeria,20,ES,1563740592,69,36.84,-2.46,28.0,8.7
Hirara,0,JP,1563740876,81,24.8,125.28,28.1,5.62
Batagay-Alyta,100,RU,1563740876,82,67.8,130.41,2.6,1.11
Nguru,100,NG,1563740876,73,12.88,10.45,25.0,3.03
Tevriz,15,RU,1563740876,81,57.51,72.4,14.1,2.24
Miri,100,NG,1563740877,88,10.31,9.75,22.2,1.87
Mount Isa,0,AU,1563740877,48,-20.73,139.49,5.0,1.0
Pinawa,8,CA,1563740674,44,50.15,-95.88,22.78,2.24
Mahon,75,IE,1563740877,93,51.89,-8.4,18.0,9.8
Lata,0,IN,1563740877,83,30.78,78.62,5.1,0.36
Jasper,20,US,1563740878,62,33.83,-87.28,32.22,2.6
Kualakapuas,77,ID,1563740878,95,-3.01,114.39,21.9,1.74
Katobu,1,ID,1563740878,94,-4.94,122.53,20.2,1.3
Sao Desiderio,6,BR,1563740879,43,-12.36,-44.97,23.4,1.41
Yeppoon,90,AU,1563740879,82,-23.13,150.74,17.0,2.6
Weihe,100,CN,1563740879,97,32.99,105.33,18.1,3.5
