City,Cloudiness,Country,Date,Humidity,Lat,Lon,Max temp,Wind speed
Barma,99,SL,1563765137,99,8.35,-11.33,20.88,0.99
Pevek,100,RU,1563765137,95,69.7,170.27,0.88,9.63
Isangel,75,VU,1563765138,53,-19.55,169.27,24.0,5.1
Port Elizabeth,1,US,1563765138,79,39.31,-74.98,32.0,2.1
Busselton,100,AU,1563765138,45,-33.64,115.35,15.56,7.66
Jardim,0,BR,1563765138,37,-21.48,-56.15,23.08,6.33
East London,0,ZA,1563765139,19,-33.02,27.91,11.08,1.87
Ushuaia,75,AR,1563765139,69,-54.81,-68.31,2.0,5.7
Lagoa,0,PT,1563765139,57,37.14,-8.45,24.0,2.6
Hilo,75,US,1563765139,65,19.71,-155.08,27.0,5.1
Panzhihua,100,CN,1563765139,78,26.59,101.72,23.98,0.71
Mahebourg,20,MU,1563765140,88,-20.41,57.7,20.56,3.1
Hearst,96,CA,1563765140,51,49.69,-83.67,15.38,2.23
Urucara,96,BR,1563765140,91,-2.54,-57.76,22.68,1.54
Caravelas,75,BR,1563765140,77,-17.73,-39.27,22.18,5.52
San Patricio,9,PY,1563765140,65,-26.98,-56.83,22.28,5.4
Thompson,75,CA,1563765074,46,55.74,-97.86,23.0,1.5
Bourail,47,NC,1563765141,59,-21.57,165.5,19.78,4.26
Carutapera,0,BR,1563765141,91,-1.2,-46.02,22.58,2.0
Ostersund,100,SE,1563765141,87,63.18,14.64,14.0,3.1
Tuktoyaktuk,90,CA,1563765141,76,69.44,-133.03,12.0,2.1
Rikitea,32,PF,1563765142,76,-23.12,-134.97,20.08,8.68
Noumea,40,NC,1563765100,49,-22.28,166.46,22.0,7.7
Arraial do Cabo,5,BR,1563765142,79,-22.97,-42.02,20.78,11.34
Rio Grande,4,BR,1563765142,84,-32.03,-52.1,17.22,2.83
Bredasdorp,0,ZA,1563765142,86,-34.53,20.04,3.0,2.6
Pangnirtung,99,CA,1563765143,86,66.15,-65.72,6.78,1.64
Malumfashi,100,NG,1563765143,92,11.79,7.62,20.58,3.39
Punta Arenas,75,CL,1563765143,83,-53.16,-70.91,2.0,6.2
Avarua,60,CK,1563765143,88,-21.21,-159.78,25.0,6.2
Lorengau,98,PG,1563765143,74,-2.02,147.27,28.58,2.63
Severo-Kurilsk,100,RU,1563765144,97,50.68,156.12,7.48,7.6
Hobart,75,AU,1563765081,51,-42.88,147.33,17.22,8.2
Chuy,100,UY,1563764952,89,-33.69,-53.46,18.48,6.23
Assiniboia,21,CA,1563765144,67,49.63,-105.99,17.98,3.42
Jiayuguan,20,CN,1563765144,30,39.77,98.29,24.48,2.89
Mount Gambier,64,AU,1563765144,51,-37.83,140.78,16.0,9.8
Upernavik,97,GL,1563765145,94,72.79,-56.15,6.18,3.6
Sagae,75,JP,1563765145,65,38.43,140.23,26.0,3.1
Tasiilaq,0,GL,1563765145,66,65.61,-37.64,9.0,1.5
Gryazovets,25,RU,1563765145,88,58.88,40.25,11.18,3.15
Guerrero Negro,0,MX,1563765145,88,27.97,-114.04,19.38,6.57
Kangaatsiaq,0,GL,1563765146,91,68.31,-53.46,6.48,3.75
Renqiu,100,CN,1563765146,31,38.71,116.1,36.58,2.51
Quatre Cocos,20,MU,1563765161,88,-20.21,57.76,20.56,3.1
Nanortalik,93,GL,1563765161,94,60.14,-45.24,3.58,0.2
Saskylakh,9,RU,1563765162,38,71.97,114.09,23.88,5.68
Marawi,100,PH,1563765162,80,8.0,124.29,28.89,3.13
Flinders,0,AU,1563765162,32,-34.58,150.85,22.78,2.1
Georgetown,0,GY,1563765162,94,6.8,-58.16,25.0,2.1
Barrow,100,AR,1563765162,42,-38.31,-60.23,8.08,3.5
Albany,75,US,1563765163,47,42.65,-73.75,25.56,2.6
Dano,100,BF,1563765163,97,11.14,-3.06,21.68,1.41
Panjab,0,AF,1563765163,24,34.38,67.02,14.88,4.05
Vaini,75,IN,1563765163,100,15.34,74.49,22.0,4.1
Klaksvik,100,FO,1563765164,93,62.23,-6.59,12.0,4.1
Mugumu,7,TZ,1563765164,78,-1.84,34.67,18.18,1.1
Tieli,100,CN,1563765164,81,46.98,128.05,24.78,1.9
Kavieng,24,PG,1563765164,68,-2.57,150.8,28.78,2.48
Bethel,90,US,1563765164,77,60.79,-161.76,16.0,2.1
Roros,100,NO,1563765164,93,62.57,11.38,10.0,3.1
Borovo,0,BG,1563765165,87,41.59,23.73,20.0,1.96
Butaritari,21,KI,1563765165,69,3.07,172.79,29.38,3.82
Hermanus,0,ZA,1563765165,57,-34.42,19.24,13.33,4.92
Noshiro,75,JP,1563765165,78,40.21,140.05,25.0,3.1
New Norfolk,75,AU,1563765165,51,-42.78,147.06,17.22,8.2
Cape Town,0,ZA,1563764906,62,-33.93,18.42,13.33,5.7
Kieta,100,PG,1563765166,92,-6.22,155.63,25.48,7.71
Jamestown,0,AU,1563765166,42,-33.21,138.6,15.08,11.41
Rocha,100,UY,1563764906,86,-34.48,-54.34,19.68,7.22
Katsuura,75,JP,1563765166,88,33.93,134.5,28.33,4.6
Chokurdakh,100,RU,1563765166,83,70.62,147.9,3.98,7.5
Puerto del Rosario,90,ES,1563765167,73,28.5,-13.86,22.0,6.7
Carnarvon,0,ZA,1563765003,36,-30.97,22.13,5.88,6.17
Provideniya,90,RU,1563765167,87,64.42,-173.23,11.0,6.0
Saint-Pierre,0,FR,1563765167,77,48.95,4.24,15.0,1.5
Atuona,48,PF,1563765167,78,-9.8,-139.03,26.68,5.55
Yar-Sale,99,RU,1563765168,65,66.83,70.83,19.18,5.45
Milkovo,0,BG,1563765168,83,41.53,24.68,25.0,2.83
Mataura,65,NZ,1563765168,95,-46.19,168.86,10.56,1.34
Taunggyi,100,MM,1563765049,81,20.78,97.03,23.48,3.02
Vangaindrano,0,MG,1563765168,80,-23.35,47.6,10.38,1.45
Marystown,100,CA,1563765169,98,47.17,-55.16,13.08,2.96
Port Alfred,0,ZA,1563765169,35,-33.59,26.89,13.89,4.02
Palmer,0,AU,1563765169,41,-34.85,139.16,17.22,10.3
Belaya Gora,100,RU,1563765169,90,68.54,146.19,4.48,8.59
Hamilton,75,CA,1563765147,56,43.26,-79.87,25.0,3.6
Airai,6,TL,1563765170,42,-8.93,125.41,27.68,1.97
Karratha,0,AU,1563765170,12,-20.74,116.85,25.68,7.59
Aklavik,90,CA,1563765170,67,68.22,-135.01,17.0,1.5
Rafaela,100,AR,1563765023,37,-31.25,-61.49,16.67,6.26
Kasempa,0,ZM,1563765185,56,-13.46,25.83,9.68,2.87
Nokha,1,IN,1563765181,47,27.56,73.47,34.38,6.45
Sayyan,41,YE,1563765186,58,15.17,44.32,23.78,0.71
Sapele,100,NG,1563765186,97,5.89,5.68,23.08,1.23
Muros,75,ES,1563765186,100,42.77,-9.06,20.0,3.1
Lebu,75,ET,1563765187,87,8.96,38.73,14.0,3.1
Kaitangata,73,NZ,1563765187,92,-46.28,169.85,12.78,0.89
Horki,98,BY,1563765187,89,54.29,30.98,14.48,2.97
Touros,40,BR,1563765187,100,-5.2,-35.46,22.0,1.5
Dudinka,0,RU,1563765188,38,69.41,86.18,23.0,3.0
Half Moon Bay,1,US,1563765188,64,37.46,-122.43,23.89,2.6
Taoudenni,20,ML,1563765188,26,22.68,-3.98,35.68,4.38
Mar del Plata,0,AR,1563765188,71,-46.43,-67.52,0.88,5.4
Arkhangelsk,0,RU,1563765189,87,64.54,40.54,10.0,2.0
Praya,40,ID,1563764972,65,-8.71,116.27,28.0,5.7
Maltahohe,0,NA,1563765189,52,-24.83,16.98,5.58,1.35
Pedernales,75,EC,1563765189,89,0.07,-80.05,22.58,8.76
Norman Wells,90,CA,1563765189,68,65.28,-126.83,19.0,1.5
Komsomolets,0,RU,1563765190,90,52.77,41.29,15.28,2.37
Bambous Virieux,20,MU,1563765190,88,-20.34,57.76,20.56,3.1
Kavaratti,99,IN,1563765190,76,10.57,72.64,28.08,10.44
Snezhnogorsk,0,RU,1563765190,81,69.19,33.23,12.0,4.64
Castro,40,CL,1563765191,100,-42.48,-73.76,2.0,2.1
Maunabo,40,PR,1563765191,74,18.01,-65.9,28.0,3.6
Hambantota,90,LK,1563765191,100,6.12,81.12,25.0,2.6
Arani,75,IN,1563765191,88,13.33,80.08,28.0,2.1
Sur,0,OM,1563765191,66,22.57,59.53,26.98,2.24
Qaanaaq,93,GL,1563765192,87,77.48,-69.36,3.68,2.48
Savannah Bight,0,HN,1563765192,81,16.45,-85.85,28.18,11.03
Sacama,0,EC,1563765192,83,-3.9,-79.27,14.58,1.84
Canutama,27,BR,1563765192,69,-6.53,-64.38,24.28,0.62
Bolshoy Lug,75,RU,1563765193,100,52.08,104.09,17.78,2.0
Karacabey,0,TR,1563765193,88,40.21,28.36,22.22,7.2
Havelock,1,US,1563764913,78,34.88,-76.9,28.33,5.1
Faanui,0,PF,1563765193,80,-16.48,-151.75,25.88,8.73
Dingle,9,PH,1563765193,70,11.0,122.67,29.78,1.95
Manaira,15,BR,1563765193,87,-7.71,-38.15,18.28,3.06
La Ronge,5,CA,1563765194,49,55.1,-105.3,23.0,1.5
Oktyabrskoye,40,RU,1563765194,87,56.73,85.44,13.33,3.0
Saint George,20,GR,1563765074,73,39.45,22.34,24.44,1.47
Dunedin,34,NZ,1563764921,90,-45.87,170.5,10.0,3.58
Takoradi,80,GH,1563765195,92,4.89,-1.75,23.48,2.06
Coahuayana,100,MX,1563765195,87,18.62,-100.35,23.28,1.65
Nefteyugansk,0,RU,1563764618,72,61.09,72.61,19.0,3.0
Port Lincoln,100,AU,1563765195,88,-34.72,135.86,13.68,14.12
Hasaki,75,JP,1563765195,94,35.73,140.83,23.0,3.6
Pouso Alegre,74,BR,1563765195,71,-22.23,-45.93,15.56,1.07
Onega,0,RU,1563765211,75,63.91,38.09,11.28,1.79
Portalegre,0,PT,1563765211,54,39.29,-7.43,18.33,0.69
Bluff,26,AU,1563765211,52,-23.58,149.07,22.18,2.6
Wanganui,0,NZ,1563765211,64,-39.93,175.05,15.56,3.13
Najran,0,SA,1563765211,21,17.54,44.22,26.0,2.1
Dikson,100,RU,1563765212,98,73.51,80.55,1.98,6.26
Pondicherry,0,ZA,1563765212,62,-34.04,18.35,13.33,5.7
Springbok,0,ZA,1563765212,44,-29.67,17.88,10.08,2.45
Qaqortoq,88,GL,1563765212,75,60.72,-46.03,8.0,1.5
Mehamn,0,NO,1563765213,63,71.03,27.85,19.0,5.1
Villavieja,97,CO,1563765213,57,3.22,-75.22,27.0,2.6
Lahij,0,YE,1563765213,49,13.06,44.88,30.68,1.33
Coquimbo,0,CL,1563765100,93,-29.95,-71.34,10.0,3.6
Wajima,75,JP,1563765214,94,37.4,136.9,24.0,4.6
Longyearbyen,75,NO,1563765214,81,78.22,15.63,7.0,8.2
Shimoda,75,JP,1563765214,83,34.7,138.93,28.0,4.1
Talnakh,0,RU,1563765214,38,69.49,88.39,23.0,3.0
Duminichi,0,RU,1563765215,91,53.93,35.11,14.28,0.2
Semey,0,KZ,1563765089,60,50.41,80.25,24.0,2.0
Sao Miguel do Araguaia,48,BR,1563765095,54,-13.28,-50.16,20.38,1.71
Hennebont,20,FR,1563765215,100,47.81,-3.27,16.67,1.0
San Luis,70,AR,1563765215,26,-33.3,-66.34,10.78,8.57
Gizo,20,IL,1563765216,78,31.8,34.94,25.0,3.6
Basco,90,US,1563765216,83,40.33,-91.2,25.0,2.1
Hobyo,11,SO,1563765216,70,5.35,48.53,23.88,8.66
Sitka,2,US,1563765216,62,37.17,-99.65,26.67,0.45
Nikolskoye,0,RU,1563765217,82,59.7,30.79,16.11,0.73
Sao Geraldo do Araguaia,13,BR,1563765217,57,-6.4,-48.55,23.08,1.61
Pisco,90,PE,1563765217,77,-13.71,-76.2,17.0,4.1
Grindavik,40,IS,1563765217,93,63.84,-22.43,13.0,3.1
Saint-Philippe,90,CA,1563765217,73,45.36,-73.48,24.0,0.91
Shenkursk,14,RU,1563765218,79,62.11,42.91,12.08,3.15
Khatanga,0,RU,1563765218,28,71.98,102.47,26.88,2.62
Pastavy,100,BY,1563765218,97,55.11,26.84,16.08,2.04
Puerto Ayora,32,EC,1563765218,94,-0.74,-90.35,21.11,1.79
Saint-Georges,0,CA,1563765108,87,46.12,-70.67,18.89,0.45
Uthal,0,PK,1563765219,61,25.81,66.62,29.98,0.93
Tiksi,5,RU,1563765219,71,71.64,128.87,4.38,4.59
Sosnovo-Ozerskoye,4,RU,1563765219,47,52.53,111.54,21.98,3.18
Antalaha,0,MG,1563765219,96,-14.9,50.28,16.88,1.69
Williamsport,1,US,1563765220,83,41.25,-77.0,26.11,0.61
Ribeira Grande,40,PT,1563765235,86,38.52,-28.7,23.68,12.95
Butiama,7,TZ,1563765235,71,-1.77,33.97,19.88,1.33
Ushumun,100,RU,1563765235,98,52.78,126.54,17.98,4.84
Fallon,1,US,1563765235,46,46.84,-105.12,23.0,4.6
Nizhniy Tsasuchey,1,RU,1563765236,50,50.52,115.13,22.38,5.26
Yellowknife,75,CA,1563764942,64,62.45,-114.38,22.78,4.6
Nouakchott,25,MR,1563765236,74,18.08,-15.98,26.0,6.7
Bubaque,61,GW,1563765236,84,11.28,-15.83,26.48,6.25
Key West,1,US,1563765177,72,47.93,-96.78,19.0,3.27
Kodiak,90,US,1563765237,94,39.95,-94.76,22.0,4.1
Paso de los Toros,100,UY,1563765237,80,-32.81,-56.52,20.48,5.74
Loandjili,0,CG,1563765237,93,-4.77,11.87,21.38,4.37
Hami,100,CN,1563765237,24,42.84,93.51,26.68,1.93
Tiznit,4,MA,1563765238,95,29.7,-9.73,19.18,1.01
Saldanha,0,PT,1563765238,66,41.42,-6.55,20.38,2.11
Neepawa,20,CA,1563765238,77,50.23,-99.46,18.0,2.1
Buriti dos Lopes,57,BR,1563765238,90,-3.18,-41.87,22.78,1.72
Boa Vista,40,BR,1563765005,78,2.82,-60.67,27.0,2.6
Ancud,40,CL,1563765020,100,-41.87,-73.83,2.0,2.1
Quang Ngai,100,VN,1563765239,46,15.12,108.8,34.08,0.48
Paamiut,18,GL,1563765239,93,61.99,-49.67,5.18,7.37
Teguldet,95,RU,1563765239,75,57.31,88.17,14.58,1.34
Candelaria,88,PH,1563765240,78,13.93,121.42,30.56,1.34
Tuatapere,94,NZ,1563765240,95,-46.13,167.69,10.56,1.34
Rosario,100,UY,1563765240,92,-34.31,-57.35,11.67,1.34
Iiyama,100,JP,1563765240,88,36.89,138.38,24.44,2.16
Mogadishu,19,SO,1563765240,77,2.04,45.34,23.38,6.44
Santiago de Cao,20,PE,1563765241,88,-7.96,-79.24,17.0,3.6
Bonavista,100,CA,1563765241,80,48.65,-53.11,10.0,4.47
Sioux Lookout,40,CA,1563765241,63,50.1,-91.92,18.0,2.1
Neryungri,100,RU,1563765241,76,56.66,124.71,11.88,1.8
Cherskiy,100,RU,1563765242,95,68.75,161.3,2.18,6.17
Mount Isa,0,AU,1563765242,13,-20.73,139.49,27.0,1.5
Berlevag,0,NO,1563765242,63,70.86,29.09,19.0,5.1
Alofi,100,NU,1563765242,78,-19.06,-169.92,25.0,6.2
Champerico,75,MX,1563765242,74,16.38,-93.6,26.0,3.1
Abu Samrah,0,SY,1563765243,59,35.3,37.18,21.48,4.0
Chambas,20,CU,1563765243,74,22.19,-78.91,29.0,3.6
Rudsar,40,IR,1563765243,83,37.14,50.29,25.0,0.79
Fairbanks,1,US,1563765128,36,64.84,-147.72,25.0,4.1
Rio Esteban,40,HN,1563765243,89,15.83,-86.3,29.0,9.8
Pangkalanbuun,63,ID,1563765244,59,-2.68,111.62,29.78,1.7
Araouane,78,ML,1563765244,34,18.9,-3.53,34.68,4.39
Vanimo,99,PG,1563765259,71,-2.67,141.3,28.28,2.01
Bandarbeyla,100,SO,1563765259,48,9.49,50.81,25.78,12.71
Nalut,0,LY,1563765259,73,31.86,10.98,19.18,3.79
Mago,100,RU,1563765260,95,53.27,140.15,13.48,2.07
Kimbe,91,PG,1563765260,75,-5.56,150.15,29.08,1.09
Kapaa,20,US,1563765260,66,22.08,-159.32,29.0,7.7
Karksi-Nuia,100,EE,1563765260,87,58.1,25.55,15.56,2.31
Cidreira,56,BR,1563765260,83,-30.17,-50.22,17.28,3.21
Aksarka,83,RU,1563765261,71,66.56,67.8,15.88,8.44
Kamiiso,75,JP,1563765261,83,41.82,140.65,21.0,9.3
Sorland,100,NO,1563765261,97,67.67,12.69,12.38,6.68
Port Hawkesbury,90,CA,1563765261,93,45.62,-61.36,18.0,3.1
Falmouth,100,GB,1563765262,93,50.16,-5.07,19.44,7.2
Kahului,40,US,1563765262,62,20.89,-156.47,30.0,10.8
Kapit,100,MY,1563765262,98,2.02,112.94,23.38,0.32
Hithadhoo,0,MV,1563765262,76,-0.6,73.08,28.38,6.24
Dwarka,20,IN,1563765262,84,28.58,77.04,30.0,2.1
Otavi,0,NA,1563765263,26,-19.64,17.34,7.98,2.44
Nuuk,100,GL,1563765263,93,64.17,-51.74,6.67,1.0
Prince Rupert,75,CA,1563765263,77,54.32,-130.32,19.0,1.5
Ca Mau,82,VN,1563765263,75,9.18,105.15,29.58,3.51
Xiuyan,13,CN,1563765264,53,40.29,123.27,31.58,2.79
Puerto Ayacucho,40,CO,1563765264,94,5.66,-67.63,25.0,2.79
Sirnak,0,TR,1563765264,26,37.52,42.46,24.88,1.91
Samarai,99,PG,1563765264,92,-10.62,150.67,23.88,3.55
Umm Lajj,0,SA,1563765264,74,25.02,37.27,28.48,4.49
Calabozo,0,VE,1563765265,86,8.92,-67.43,23.48,1.71
Muravlenko,0,RU,1563765265,32,63.79,74.5,22.58,1.88
Crotone,0,IT,1563765265,49,39.09,17.12,22.38,1.63
Cabo San Lucas,5,MX,1563765159,78,22.89,-109.91,28.33,2.1
Nemuro,75,JP,1563765265,72,43.32,145.57,19.0,4.6
Lixourion,0,GR,1563765266,83,38.2,20.43,25.0,6.6
Chisinau,0,MD,1563765266,88,47.01,28.86,17.78,2.1
Leh,0,IN,1563765266,25,34.16,77.58,7.98,1.32
Lokachi,100,UA,1563765266,87,50.74,24.65,18.33,2.83
Sao Filipe,3,CV,1563765266,77,14.9,-24.5,24.28,2.53
Roald,42,NO,1563765267,93,62.58,6.12,12.22,2.1
Ukiah,1,US,1563765028,31,39.15,-123.21,32.0,2.1
Amapa,75,HN,1563765267,83,15.09,-87.97,28.0,3.1
Victoria,90,BN,1563765035,83,5.28,115.24,30.0,2.1
Fortuna,1,US,1563765267,77,40.6,-124.16,16.11,3.1
Gucheng,98,CN,1563765268,39,32.27,111.65,31.67,1.74
Salalah,90,OM,1563765268,94,17.01,54.1,26.0,2.6
Florianopolis,40,BR,1563765268,88,-27.6,-48.55,21.11,5.1
Anuradhapura,100,LK,1563765269,82,8.34,80.41,26.38,2.98
Guarapari,90,BR,1563765272,88,-20.67,-40.5,21.0,1.0
Ixtapa,90,MX,1563765284,100,20.71,-105.21,24.44,2.1
Torbay,90,CA,1563765284,100,47.66,-52.73,10.56,6.7
Sobolevo,65,RU,1563765284,86,54.43,31.9,14.08,2.24
Silver City,76,US,1563765284,24,32.77,-108.28,30.56,0.45
Lekoni,42,GA,1563765285,85,-1.58,14.26,21.38,3.34
Kununurra,45,AU,1563765285,45,-15.77,128.74,29.0,2.6
Abong Mbang,100,CM,1563765285,98,3.98,13.18,19.48,1.26
Axim,86,GH,1563765285,90,4.87,-2.24,24.48,4.9
Butembo,61,CD,1563765285,97,0.12,29.29,15.08,1.16
Hameenlinna,0,FI,1563765286,87,61.0,24.46,15.56,1.0
Sabha,0,LY,1563765286,30,27.03,14.43,23.58,5.63
Fuyu,0,CN,1563765286,47,47.79,124.46,26.88,5.25
Qeshm,40,IR,1563765286,75,26.96,56.27,32.0,4.1
Pittsfield,75,US,1563765287,88,39.61,-90.81,26.11,1.5
Ostrovnoy,24,RU,1563765287,66,68.05,39.51,13.58,1.38
Northam,75,AU,1563765287,77,-31.65,116.67,15.0,3.6
Ilulissat,40,GL,1563765287,87,69.22,-51.1,8.0,1.0
Batemans Bay,0,AU,1563765287,74,-35.71,150.18,17.22,2.24
Luderitz,0,NA,1563765288,65,-26.65,15.16,14.28,2.6
Pangoa,0,PE,1563765288,94,-12.12,-73.0,19.58,0.94
Niigata,75,JP,1563765288,70,37.91,139.04,31.11,1.5
Palmerston,0,AU,1563765288,45,-12.49,130.99,30.0,2.6
Padang,12,ID,1563765288,78,-0.92,100.36,27.08,2.84
Constitucion,90,MX,1563765289,59,23.99,-104.67,18.89,3.6
Ponta do Sol,32,BR,1563765289,81,-20.63,-46.0,13.68,3.36
Bogorodskoye,100,RU,1563765289,86,52.37,140.44,17.68,1.85
Port Hedland,0,AU,1563765289,13,-20.31,118.58,26.0,8.7
Vestmannaeyjar,50,IS,1563765290,90,63.44,-20.27,11.18,1.24
Tawang,79,BT,1563765290,79,27.59,91.87,19.28,1.48
Jadu,0,LY,1563765290,67,31.95,12.03,19.88,3.43
Sohag,0,EG,1563765290,42,26.55,31.7,27.0,3.1
Marsh Harbour,100,BS,1563765290,73,26.54,-77.06,29.08,4.97
Arman,71,RU,1563765291,44,59.7,150.17,19.28,5.7
Nara,75,JP,1563765291,78,34.68,135.8,31.67,8.2
Hohhot,40,CN,1563765291,88,40.81,111.65,20.0,1.0
Yerbogachen,100,RU,1563765291,39,61.28,108.01,21.58,5.68
Bocas del Toro,100,PA,1563765291,91,9.33,-82.25,13.33,1.28
Luena,0,AO,1563765292,36,-11.78,19.91,8.78,1.02
Lasa,0,CY,1563765292,83,34.92,32.53,24.0,2.1
Kruisfontein,0,ZA,1563765292,30,-34.0,24.73,10.88,5.7
Xining,0,CN,1563765292,47,36.62,101.77,16.68,2.15
Aasiaat,13,GL,1563765292,93,68.71,-52.87,5.58,3.74
Itarema,0,BR,1563765293,83,-2.92,-39.92,22.78,2.99
Durango,90,MX,1563765293,59,24.02,-104.67,18.89,3.6
Buraydah,0,SA,1563765308,31,26.33,43.97,26.0,2.1
Ponta Delgada,20,PT,1563765308,94,37.73,-25.67,22.0,6.7
Fort Nelson,75,CA,1563765309,56,58.81,-122.69,23.0,7.2
Kapuskasing,20,CA,1563765196,67,49.42,-82.43,14.0,2.6
Altay,8,CN,1563765309,45,47.83,88.13,17.88,2.87
Halifax,90,CA,1563765269,100,44.65,-63.58,18.89,5.1
Codrington,0,AU,1563765309,49,-28.95,153.24,23.0,1.0
Namwala,20,ZM,1563765309,51,-15.75,26.45,9.78,2.31
Abnub,0,EG,1563765310,50,27.27,31.15,25.0,3.1
Sinnamary,100,GF,1563765310,79,5.38,-52.96,27.08,6.07
Mangan,100,IN,1563765310,92,27.5,88.54,16.08,1.44
Kysyl-Syr,0,RU,1563765310,37,63.9,122.77,23.68,4.63
Sangar,0,RU,1563765310,29,63.92,127.47,24.78,3.11
Faya,0,SA,1563765310,22,18.39,42.45,20.0,3.37
Labuhan,0,ID,1563765311,43,-2.54,115.51,31.08,1.27
Ouallam,92,NE,1563765311,49,14.32,2.08,30.58,2.19
Roebourne,0,AU,1563765311,13,-20.77,117.15,25.48,7.68
Katherine,9,AU,1563765311,18,-14.47,132.26,29.0,2.6
Tazovskiy,54,RU,1563765105,84,67.47,78.7,14.18,4.03
Yumbing,100,PH,1563765312,74,9.24,124.66,28.28,4.24
Bodden Town,20,KY,1563765312,83,19.28,-81.25,29.0,4.1
Anadyr,90,RU,1563765312,93,64.73,177.51,11.0,6.0
Dhemaji,90,IN,1563765312,100,27.48,94.56,25.0,2.6
Terrak,100,NO,1563765313,93,65.09,12.37,14.0,5.1
Qasigiannguit,40,GL,1563765313,87,68.82,-51.19,8.0,1.0
Kupino,3,RU,1563765313,56,54.36,77.31,19.58,3.76
Hofn,100,IS,1563765313,97,64.25,-15.21,4.28,4.6
Khandyga,0,RU,1563765314,24,62.65,135.58,22.48,6.09
Lungi,63,SL,1563765314,95,9.22,-12.68,23.48,1.86
Cayenne,100,GF,1563765314,94,4.94,-52.33,24.0,2.1
Whitehorse,75,CA,1563765092,64,60.72,-135.06,20.0,2.1
Trincomalee,100,LK,1563765314,68,8.58,81.23,27.38,4.23
Saint-Joseph,0,FR,1563765315,88,43.56,6.97,23.33,1.5
Emborion,0,GR,1563765315,68,40.48,21.55,22.78,3.1
Derzhavinsk,0,KZ,1563765315,64,51.1,66.31,20.68,8.42
Geraldton,20,CA,1563765315,58,49.72,-86.95,15.0,3.1
Kirakira,100,SB,1563765315,76,-10.46,161.92,28.08,5.62
Bambanglipuro,90,ID,1563765316,81,-7.95,110.28,24.48,6.29
Yanam,40,IN,1563765316,79,16.73,82.22,30.0,3.1
Nome,1,US,1563765316,83,30.04,-94.42,28.89,1.5
Masaguisi,99,PH,1563765316,69,12.75,121.45,27.28,1.77
Lebanon,20,US,1563765317,74,40.34,-76.42,27.22,7.7
Novikovo,0,RU,1563765317,83,51.15,37.89,15.78,1.23
Yulara,0,AU,1563765333,24,-25.24,130.99,20.0,2.6
San Fernando,40,TT,1563765333,88,10.28,-61.46,26.11,2.6
Mercedes,100,UY,1563765333,86,-33.25,-58.03,12.48,10.39
Arlit,41,NE,1563765333,27,18.74,7.39,34.18,0.48
Kalmunai,100,LK,1563765333,79,7.42,81.82,25.78,1.66
Gumia,96,IN,1563765334,63,23.8,85.83,30.18,3.48
Ahipara,65,NZ,1563765334,92,-35.17,173.16,17.22,0.45
Jieshi,100,CN,1563765334,84,22.82,115.83,28.33,1.91
Fougamou,99,GA,1563765334,92,-1.22,10.59,21.08,0.52
Guymon,1,US,1563765334,78,36.68,-101.48,28.0,3.6
Lompoc,90,US,1563765283,87,34.64,-120.46,19.44,3.6
Anshun,100,CN,1563765335,87,26.25,105.93,21.38,2.35
Sikandra,30,IN,1563765335,47,26.37,79.63,35.08,1.97
Hovd,75,NO,1563765335,87,63.83,10.7,13.33,5.1
Matara,0,BI,1563765335,81,-3.48,29.48,8.88,0.94
Alice Springs,0,AU,1563765335,27,-23.7,133.88,20.0,3.1
Colomi,20,BO,1563765336,41,-17.34,-65.87,15.0,3.6
Ludvika,56,SE,1563765336,100,60.15,15.18,15.56,1.0
Puerto Carreno,40,CO,1563765336,94,6.19,-67.49,25.0,1.54
Port Blair,40,IN,1563765336,83,11.67,92.75,28.0,2.6
Sao Felix do Xingu,0,BR,1563765336,60,-6.64,-51.99,22.78,1.27
Saint-Francois,0,FR,1563765337,77,46.42,3.91,17.0,0.76
Ewa Beach,40,US,1563765337,48,21.32,-158.01,31.0,8.7
Raduzhnyy,32,RU,1563765337,40,62.1,77.47,21.78,4.52
Pochutla,75,MX,1563765337,78,15.74,-96.47,28.0,0.53
Husavik,0,CA,1563765338,57,50.56,-96.99,17.78,2.24
Manzanillo,90,MX,1563765338,83,19.05,-104.32,27.0,2.6
Uvalde,1,US,1563765338,36,29.21,-99.79,33.0,3.1
Myitkyina,100,MM,1563765339,99,25.38,97.4,23.18,0.67
Uchiza,0,PE,1563765339,79,-8.46,-76.46,17.78,1.63
Nizhniy Kuranakh,73,RU,1563765339,39,58.84,125.49,19.88,5.47
Zhanaozen,19,KZ,1563765340,22,43.35,52.85,30.88,8.64
Lander,1,US,1563765340,40,42.83,-108.73,24.44,2.1
Isilkul,93,RU,1563765341,82,54.9,71.26,20.38,5.31
Olavarria,100,AR,1563765126,61,-36.89,-60.32,10.0,2.73
Wasilla,1,US,1563765332,50,61.58,-149.44,25.56,2.6
Harindanga,40,IN,1563765341,79,22.04,88.32,31.0,4.1
Gari,100,RU,1563765341,97,59.43,62.35,15.38,2.87
Minab,40,IR,1563765341,75,27.15,57.07,32.0,4.1
Tooele,1,US,1563765342,33,40.53,-112.3,31.0,2.1
Pacific Grove,1,US,1563765064,72,36.62,-121.92,23.33,3.1
Grand Gaube,20,MU,1563765342,88,-20.01,57.66,20.56,3.1
Beyneu,67,KZ,1563765342,21,45.32,55.19,29.88,5.71
East Foothills,1,US,1563765342,64,37.38,-121.82,27.0,2.6
Tshikapa,0,CD,1563765343,31,-6.42,20.79,18.68,0.95
Dongsheng,13,CN,1563765358,75,29.72,112.52,32.38,4.08
Weiser,1,US,1563765358,38,44.25,-116.97,31.11,1.5
The Valley,20,AI,1563765358,74,18.22,-63.06,28.0,4.1
Simpang,53,ID,1563765358,52,4.36,96.17,31.18,0.36
Port Hardy,40,CA,1563765359,63,50.7,-127.42,19.0,5.1
Souillac,0,FR,1563765359,77,45.6,-0.6,20.0,3.29
Olinda,20,AU,1563765359,54,-37.84,145.39,16.67,9.3
Corn Island,100,NI,1563765359,79,12.17,-83.04,27.78,7.81
Porto Novo,0,BR,1563765360,82,-23.68,-45.44,16.0,2.1
Blue Springs,90,US,1563765164,94,39.02,-94.28,23.33,7.2
Zhigansk,0,RU,1563765360,30,66.77,123.37,18.38,7.55
Solenzo,87,BF,1563765360,96,12.18,-4.08,21.88,1.89
Ialibu,100,PG,1563765196,95,-6.28,143.99,19.98,1.12
Owando,3,CG,1563765361,92,-0.49,15.91,21.18,1.22
Madang,6,CN,1563765361,54,35.32,102.79,12.88,5.31
Tumaco,99,CO,1563765323,86,1.8,-78.82,25.48,8.78
Vila Franca do Campo,20,PT,1563765361,94,37.72,-25.43,22.0,6.7
Alim,100,CF,1563765361,99,6.02,14.65,18.28,1.44
Barcelos,100,BR,1563765362,94,-0.97,-62.93,22.78,0.76
Rennes,0,FR,1563765362,93,48.11,-1.68,15.0,1.0
Warrnambool,1,AU,1563765362,45,-38.38,142.48,16.67,8.05
Dimitrovgrad,0,BG,1563765362,64,42.06,25.59,21.0,2.04
Winnemucca,1,US,1563765363,14,40.97,-117.74,34.0,2.6
Evensk,97,RU,1563765363,60,61.92,159.24,14.38,2.73
Ambikapur,0,IN,1563765363,59,23.12,83.2,30.28,3.09
Baghdad,0,IQ,1563765257,44,33.3,44.38,27.0,2.6
Sao Joao da Barra,0,BR,1563765363,94,-21.64,-41.05,17.28,1.88
Marshall,1,US,1563765068,78,32.54,-94.37,29.0,1.84
Portland,90,US,1563765364,65,43.66,-70.25,26.11,3.6
Kindersley,20,CA,1563765364,60,51.47,-109.16,22.0,3.6
Mitsamiouli,0,KM,1563765364,72,-11.38,43.28,24.58,15.96
Altar,33,MX,1563765364,64,30.72,-111.84,27.22,0.45
Caraubas,40,BR,1563765365,78,-5.79,-37.56,21.08,2.42
Baruun-Urt,100,MN,1563765365,60,46.68,113.28,23.38,6.81
Broken Hill,0,AU,1563765365,29,-31.97,141.45,17.0,5.1
Coihaique,75,CL,1563765365,99,-45.58,-72.07,0.0,0.5
Moerai,75,PF,1563765365,82,-22.43,-151.33,22.88,9.88
Adrar,0,DZ,1563765366,16,27.87,-0.29,35.0,8.7
Toccoa,1,US,1563765366,74,34.58,-83.33,26.67,2.26
Martinsville,1,US,1563765074,100,36.69,-79.87,29.0,1.84
Rocky Mountain House,0,CA,1563765255,79,52.38,-114.92,16.98,5.72
Kadhan,100,PK,1563765366,65,24.48,68.99,30.68,4.25
Goundam,67,ML,1563765367,40,16.42,-3.66,33.18,3.73
Banda Aceh,87,ID,1563765382,69,5.56,95.32,28.78,6.33
Chakia,0,IN,1563765228,61,26.42,85.05,33.48,3.72
Santa Rosalia,0,IT,1563765382,78,38.07,13.27,24.44,2.1
Madera,1,US,1563765382,40,36.96,-120.06,36.0,3.6
Monterey,1,US,1563765122,72,36.6,-121.89,22.78,3.1
Ubajara,0,BR,1563765089,87,-3.85,-40.92,18.98,2.39
Marsa Matruh,0,EG,1563765383,73,31.35,27.25,24.0,2.6
Chifeng,100,CN,1563765383,28,42.27,118.96,33.08,3.6
Nocupetaro,100,MX,1563765383,89,19.05,-101.15,19.28,1.83
Plouzane,90,FR,1563765296,93,48.38,-4.62,17.78,3.1
Deder,100,ET,1563765384,60,9.31,41.44,22.78,5.35
Hartselle,90,US,1563765384,88,34.44,-86.94,27.0,1.5
Baykit,23,RU,1563765384,45,61.68,96.39,19.08,4.42
Tucson,75,US,1563765220,35,32.22,-110.93,33.89,2.1
Eskil,0,TR,1563765384,70,38.4,33.41,18.38,5.64
Dharchula,35,IN,1563765384,83,29.85,80.53,16.18,2.12
Awjilah,0,LY,1563765385,42,29.14,21.3,22.78,4.71
Nelson Bay,75,AU,1563765229,72,-32.72,152.14,19.44,5.1
Kiruna,16,SE,1563765385,87,67.86,20.23,14.0,2.1
Ugoofaaru,100,MV,1563765385,79,5.67,73.0,28.08,7.35
Panama City,75,US,1563765386,78,30.16,-85.65,27.78,1.5
Kanniyakumari,100,IN,1563765326,78,8.08,77.57,26.28,10.78
Balkanabat,0,TM,1563765386,27,39.51,54.36,33.78,4.14
Akdepe,0,TM,1563765386,31,42.05,59.39,25.0,3.1
Macenta,100,GN,1563765386,99,8.55,-9.47,20.58,0.63
Westport,1,US,1563765387,55,41.14,-73.36,31.0,4.1
Petropavlovsk-Kamchatskiy,40,RU,1563765387,53,53.05,158.65,23.0,2.0
Darab,0,IR,1563765387,13,28.75,54.55,24.58,2.75
Lavrentiya,58,RU,1563765387,80,65.58,-170.99,11.28,6.96
Hatillo,14,PR,1563765387,91,18.49,-66.83,26.11,0.89
Ust-Kuyga,100,RU,1563765388,60,70.0,135.55,6.48,3.42
Hualmay,41,PE,1563765388,86,-11.1,-77.61,16.88,4.97
Antofagasta,90,CL,1563765388,67,-23.65,-70.4,14.0,5.1
Pervomayskiy,0,RU,1563765388,90,53.24,40.29,14.88,1.47
Salistea de Sus,20,RO,1563765389,100,47.65,24.35,17.22,1.0
Chillan,12,CL,1563765389,100,-36.61,-72.1,5.0,2.6
Romitan,0,UZ,1563765389,30,39.93,64.38,28.0,6.2
Tingo Maria,15,PE,1563765389,92,-9.29,-76.01,2.38,1.13
Chadan,100,RU,1563765390,62,51.29,91.58,17.68,1.56
Santa Ana,67,MX,1563765390,64,30.54,-111.12,27.22,0.45
Pennadam,100,IN,1563765390,72,11.4,79.24,27.08,3.14
Zeya,100,RU,1563765390,97,53.74,127.27,13.18,3.98
Nyrob,100,RU,1563765391,82,60.74,56.73,17.88,0.96
Morehead,1,US,1563765391,88,38.18,-83.43,24.0,3.1
Batagay,61,RU,1563765406,42,67.65,134.64,11.08,3.24
Zverinogolovskoye,50,RU,1563765406,86,54.46,64.85,18.28,5.0
Kaduy,0,RU,1563765406,100,59.2,37.15,9.0,1.56
Staryy Oskol,0,RU,1563765407,83,51.3,37.84,15.78,1.23
Kloulklubed,75,PW,1563765407,74,7.04,134.26,30.0,4.6
Miri,100,NG,1563765407,98,10.31,9.75,20.38,2.45
Oranjemund,0,ZA,1563765407,80,-28.55,16.43,13.38,3.55
Moree,40,AU,1563765408,40,-29.46,149.84,21.11,4.1
Jalu,0,LY,1563765408,53,29.03,21.55,22.58,3.83
Namatanai,71,PG,1563765408,76,-3.66,152.44,27.38,2.56
Diego de Almagro,100,CL,1563765408,92,-26.39,-70.05,6.68,0.34
Esperance,75,AU,1563765408,93,-33.86,121.89,11.0,9.3
Nkwerre,67,NG,1563765409,98,5.75,7.12,22.08,1.72
Vyselki,87,RU,1563765409,94,45.58,39.66,17.88,1.85
Aketi,100,CD,1563765409,97,2.74,23.78,20.18,0.22
Ustupo,100,PA,1563765409,98,9.13,-77.93,23.98,0.95
Srivardhan,78,IN,1563765410,83,18.03,73.02,27.88,3.28
Laguna,40,BZ,1563765410,94,16.17,-88.94,27.0,1.55
Salvador,40,BR,1563765176,78,-12.98,-38.48,25.0,5.7
College,1,US,1563765410,36,64.86,-147.8,25.0,4.6
Patitirion,0,GR,1563765410,73,39.15,23.87,23.0,3.55
Ahuimanu,75,US,1563765410,94,21.44,-157.84,31.0,6.7
Matadi,32,CD,1563765411,89,-5.83,13.46,20.48,0.92
Tromso,0,NO,1563765411,87,69.65,18.96,17.22,11.3
Las Vegas,20,US,1563765155,7,36.17,-115.15,41.0,2.6
Veinticinco de Diciembre,0,MX,1563765411,31,25.26,-104.05,24.58,4.4
Kodinsk,0,RU,1563765411,39,58.6,99.18,23.78,1.21
Barabinsk,0,RU,1563765412,61,55.35,78.35,18.08,2.49
Bud,33,NO,1563765412,87,62.91,6.91,11.0,4.6
Tezu,100,IN,1563765412,82,27.93,96.16,25.28,0.35
Camacha,40,PT,1563765412,82,33.08,-16.33,21.0,4.1
Nurota,0,UZ,1563765413,23,40.56,65.69,30.0,5.1
Igrim,100,RU,1563765413,70,63.19,64.42,21.58,3.43
Bara,100,NG,1563765413,93,10.41,10.6,21.28,3.47
Henties Bay,86,NA,1563765413,96,-22.12,14.28,12.22,0.89
Okha,100,RU,1563765413,90,53.59,142.95,12.98,3.95
Nautla,91,MX,1563765414,86,20.22,-96.78,27.28,5.38
Horta,40,BR,1563765414,78,-10.93,-37.66,24.0,6.2
Altus,1,US,1563765414,54,34.64,-99.33,33.0,3.6
Bilma,0,NE,1563765414,40,18.69,12.92,29.68,4.93
Aden,0,YE,1563765414,56,12.79,45.03,30.68,3.34
Rawson,0,AR,1563765414,68,-43.3,-65.11,3.88,4.55
Kalevala,97,FI,1563765415,72,64.12,29.58,15.88,0.57
Sistranda,75,NO,1563765415,93,63.73,8.83,13.33,1.5
Xai-Xai,44,MZ,1563765415,80,-25.04,33.64,12.88,1.17
Sibolga,92,ID,1563765430,78,1.74,98.78,26.68,2.89
Storforshei,100,NO,1563765431,91,66.4,14.52,15.56,1.53
Holly Hill,1,US,1563765431,78,29.24,-81.04,25.0,1.82
Yarmouth,5,CA,1563765431,100,43.84,-66.12,19.44,3.1
Gornopravdinsk,0,RU,1563765431,52,60.06,69.92,22.48,3.84
San Juan del Sur,97,NI,1563765431,72,11.25,-85.87,26.98,8.89
Naze,85,NG,1563765432,98,5.43,7.07,22.38,1.89
Luwuk,0,ID,1563765432,66,-0.95,122.79,22.58,2.52
Chicama,20,PE,1563765432,88,-7.84,-79.15,17.0,3.6
Narsaq,88,GL,1563765432,81,60.91,-46.05,7.0,2.1
Xiamen,75,CN,1563765433,94,24.46,118.07,28.0,1.0
Pingliang,100,CN,1563765433,55,35.54,106.68,21.98,3.05
Mazagao,40,BR,1563765433,88,-0.12,-51.29,27.0,4.1
Deputatskiy,100,RU,1563765433,92,69.3,139.9,1.58,3.19
